{
"type": "FeatureCollection",
"name": "stations",
"crs": { "type": "name", "properties": { "name": "urn:ogc:def:crs:OGC:1.3:CRS84" } },
"features": [
{ "type": "Feature", "properties": { "osm_id": 257952721, "name": "18th Street", "public_transport": "stop_position", "railway": "stop", "operator": null, "highway": null, "train": "yes", "shelter": null, "local_ref": null, "bench": null, "bus": null, "network": null, "old_name": null }, "geometry": { "type": "Point", "coordinates": [ -87.6176848, 41.8575211 ] } },
{ "type": "Feature", "properties": { "osm_id": 5371172402, "name": "Museum Campus \/ 11th Street", "public_transport": "stop_position", "railway": "stop", "operator": null, "highway": null, "train": "yes", "shelter": null, "local_ref": null, "bench": null, "bus": null, "network": null, "old_name": null }, "geometry": { "type": "Point", "coordinates": [ -87.6215619, 41.8689948 ] } },
{ "type": "Feature", "properties": { "osm_id": 1105878913, "name": "Van Buren Street", "public_transport": "stop_position", "railway": "stop", "operator": null, "highway": null, "train": "yes", "shelter": null, "local_ref": null, "bench": null, "bus": null, "network": null, "old_name": null }, "geometry": { "type": "Point", "coordinates": [ -87.6228538, 41.8771249 ] } },
{ "type": "Feature", "properties": { "osm_id": 5832931863, "name": "Michigan & Monroe", "public_transport": "platform", "railway": null, "operator": "Chicago Transit Authority", "highway": "bus_stop", "train": null, "shelter": "no", "local_ref": "18396", "bench": "no", "bus": null, "network": null, "old_name": null }, "geometry": { "type": "Point", "coordinates": [ -87.624525, 41.8805508 ] } },
{ "type": "Feature", "properties": { "osm_id": 5832931864, "name": "Michigan & Monroe", "public_transport": "stop_position", "railway": null, "operator": "Chicago Transit Authority", "highway": null, "train": null, "shelter": null, "local_ref": "18396", "bench": null, "bus": "yes", "network": "CTA", "old_name": null }, "geometry": { "type": "Point", "coordinates": [ -87.624452, 41.8805378 ] } },
{ "type": "Feature", "properties": { "osm_id": 5832931865, "name": "Michigan & Monroe", "public_transport": "stop_position", "railway": null, "operator": "Chicago Transit Authority", "highway": null, "train": null, "shelter": null, "local_ref": "15241", "bench": null, "bus": "yes", "network": "CTA", "old_name": null }, "geometry": { "type": "Point", "coordinates": [ -87.6242526, 41.8804918 ] } },
{ "type": "Feature", "properties": { "osm_id": 2981739681, "name": "Michigan & Monroe", "public_transport": "platform", "railway": null, "operator": "Chicago Transit Authority", "highway": "bus_stop", "train": null, "shelter": "yes", "local_ref": "15241", "bench": "yes", "bus": null, "network": null, "old_name": null }, "geometry": { "type": "Point", "coordinates": [ -87.62419, 41.880469 ] } },
{ "type": "Feature", "properties": { "osm_id": 5840526764, "name": "Michigan & Madison", "public_transport": "stop_position", "railway": null, "operator": "Chicago Transit Authority", "highway": null, "train": null, "shelter": null, "local_ref": "2188", "bench": null, "bus": "yes", "network": "CTA", "old_name": null }, "geometry": { "type": "Point", "coordinates": [ -87.6241882, 41.8824539 ] } },
{ "type": "Feature", "properties": { "osm_id": 2981739682, "name": "Michigan & Madison", "public_transport": "platform", "railway": null, "operator": "Chicago Transit Authority", "highway": "bus_stop", "train": null, "shelter": "yes", "local_ref": "2188", "bench": "yes", "bus": null, "network": "CTA", "old_name": null }, "geometry": { "type": "Point", "coordinates": [ -87.6241266, 41.8824471 ] } },
{ "type": "Feature", "properties": { "osm_id": 4752123985, "name": "Michigan & Washington", "public_transport": "platform", "railway": null, "operator": "Chicago Transit Authority", "highway": "bus_stop", "train": null, "shelter": "yes", "local_ref": "1106", "bench": "yes", "bus": null, "network": "CTA", "old_name": null }, "geometry": { "type": "Point", "coordinates": [ -87.6246394, 41.883481 ] } },
{ "type": "Feature", "properties": { "osm_id": 5830660265, "name": "Michigan & Washington", "public_transport": "stop_position", "railway": null, "operator": "Chicago Transit Authority", "highway": null, "train": null, "shelter": null, "local_ref": "1106", "bench": null, "bus": "yes", "network": "CTA", "old_name": null }, "geometry": { "type": "Point", "coordinates": [ -87.6245218, 41.8834269 ] } },
{ "type": "Feature", "properties": { "osm_id": 2981717279, "name": "Michigan & Lake\/Randolph", "public_transport": "platform", "railway": null, "operator": "Chicago Transit Authority", "highway": "bus_stop", "train": null, "shelter": "yes", "local_ref": "1105", "bench": "yes", "bus": null, "network": "CTA", "old_name": null }, "geometry": { "type": "Point", "coordinates": [ -87.624662, 41.8851021 ] } },
{ "type": "Feature", "properties": { "osm_id": 5830612436, "name": "Michigan & Lake\/Randolph", "public_transport": "stop_position", "railway": null, "operator": "Chicago Transit Authority", "highway": null, "train": null, "shelter": null, "local_ref": "1105", "bench": null, "bus": "yes", "network": "CTA", "old_name": null }, "geometry": { "type": "Point", "coordinates": [ -87.6245698, 41.8850898 ] } },
{ "type": "Feature", "properties": { "osm_id": 5830612437, "name": "Michigan & Randolph", "public_transport": "stop_position", "railway": null, "operator": "Chicago Transit Authority", "highway": null, "train": null, "shelter": null, "local_ref": "1119", "bench": null, "bus": "yes", "network": "CTA", "old_name": null }, "geometry": { "type": "Point", "coordinates": [ -87.6243988, 41.8851145 ] } },
{ "type": "Feature", "properties": { "osm_id": 2981717278, "name": "Michigan & Randolph", "public_transport": "platform", "railway": null, "operator": "Chicago Transit Authority", "highway": "bus_stop", "train": null, "shelter": "yes", "local_ref": "1119", "bench": "yes", "bus": null, "network": "CTA", "old_name": null }, "geometry": { "type": "Point", "coordinates": [ -87.6243128, 41.8850937 ] } },
{ "type": "Feature", "properties": { "osm_id": 5033698158, "name": "Randolph & Michigan", "public_transport": "platform", "railway": null, "operator": "Chicago Transit Authority", "highway": "bus_stop", "train": null, "shelter": "yes", "local_ref": "14482", "bench": "yes", "bus": null, "network": "CTA", "old_name": null }, "geometry": { "type": "Point", "coordinates": [ -87.6238285, 41.8843073 ] } },
{ "type": "Feature", "properties": { "osm_id": 5844628342, "name": "Randolph & Michigan", "public_transport": "stop_position", "railway": null, "operator": "Chicago Transit Authority", "highway": null, "train": null, "shelter": null, "local_ref": "14482", "bench": null, "bus": "yes", "network": "CTA", "old_name": null }, "geometry": { "type": "Point", "coordinates": [ -87.6238279, 41.8843538 ] } },
{ "type": "Feature", "properties": { "osm_id": 5747591399, "name": "Millennium Station, Track 8", "public_transport": "stop_position", "railway": null, "operator": null, "highway": null, "train": "yes", "shelter": null, "local_ref": null, "bench": null, "bus": null, "network": null, "old_name": null }, "geometry": { "type": "Point", "coordinates": [ -87.6230733, 41.8840456 ] } },
{ "type": "Feature", "properties": { "osm_id": 5747591400, "name": "Millennium Station, Track 9", "public_transport": "stop_position", "railway": null, "operator": null, "highway": null, "train": "yes", "shelter": null, "local_ref": null, "bench": null, "bus": null, "network": null, "old_name": null }, "geometry": { "type": "Point", "coordinates": [ -87.6229818, 41.8840456 ] } },
{ "type": "Feature", "properties": { "osm_id": 5747591401, "name": "Millennium Station, Track 10", "public_transport": "stop_position", "railway": null, "operator": null, "highway": null, "train": "yes", "shelter": null, "local_ref": null, "bench": null, "bus": null, "network": null, "old_name": null }, "geometry": { "type": "Point", "coordinates": [ -87.6229456, 41.8840466 ] } },
{ "type": "Feature", "properties": { "osm_id": 5747591398, "name": "Millennium Station, Track 11", "public_transport": "stop_position", "railway": null, "operator": null, "highway": null, "train": "yes", "shelter": null, "local_ref": null, "bench": null, "bus": null, "network": null, "old_name": null }, "geometry": { "type": "Point", "coordinates": [ -87.6228414, 41.8840516 ] } },
{ "type": "Feature", "properties": { "osm_id": 5746145313, "name": "Millennium Station", "public_transport": "station", "railway": "station", "operator": "Metra", "highway": null, "train": "yes", "shelter": null, "local_ref": null, "bench": null, "bus": null, "network": "Metra", "old_name": "Randolph Street Station" }, "geometry": { "type": "Point", "coordinates": [ -87.6234809, 41.8844384 ] } },
{ "type": "Feature", "properties": { "osm_id": 5747591397, "name": "Millennium Station, Track 12", "public_transport": "stop_position", "railway": null, "operator": null, "highway": null, "train": "yes", "shelter": null, "local_ref": null, "bench": null, "bus": null, "network": null, "old_name": null }, "geometry": { "type": "Point", "coordinates": [ -87.6228013, 41.8840501 ] } },
{ "type": "Feature", "properties": { "osm_id": 2427386390, "name": "Millennium Station, Track 13", "public_transport": "stop_position", "railway": null, "operator": null, "highway": null, "train": "yes", "shelter": null, "local_ref": null, "bench": null, "bus": null, "network": null, "old_name": null }, "geometry": { "type": "Point", "coordinates": [ -87.6227049, 41.8840495 ] } },
{ "type": "Feature", "properties": { "osm_id": 5867916902, "name": "Randolph & Stetson", "public_transport": "stop_position", "railway": null, "operator": "Chicago Transit Authority", "highway": null, "train": null, "shelter": null, "local_ref": "6360", "bench": null, "bus": "yes", "network": "CTA", "old_name": null }, "geometry": { "type": "Point", "coordinates": [ -87.622131, 41.8845106 ] } },
{ "type": "Feature", "properties": { "osm_id": 2819259089, "name": "Randolph & Stetson", "public_transport": "platform", "railway": null, "operator": "Chicago Transit Authority", "highway": "bus_stop", "train": null, "shelter": "yes", "local_ref": "6360", "bench": "yes", "bus": null, "network": "CTA", "old_name": null }, "geometry": { "type": "Point", "coordinates": [ -87.6221319, 41.8845836 ] } },
{ "type": "Feature", "properties": { "osm_id": 5033698153, "name": "Randolph & Columbus EB", "public_transport": null, "railway": null, "operator": "Chicago Transit Authority", "highway": "bus_stop", "train": null, "shelter": "no", "local_ref": "6353", "bench": "no", "bus": null, "network": null, "old_name": null }, "geometry": { "type": "Point", "coordinates": [ -87.6209789, 41.884219 ] } },
{ "type": "Feature", "properties": { "osm_id": 5033698156, "name": "Randolph & Columbus WB", "public_transport": null, "railway": null, "operator": "Chicago Transit Authority", "highway": "bus_stop", "train": null, "shelter": "yes", "local_ref": "6359", "bench": "yes", "bus": null, "network": null, "old_name": null }, "geometry": { "type": "Point", "coordinates": [ -87.620186, 41.8845851 ] } },
{ "type": "Feature", "properties": { "osm_id": 5033698152, "name": "Columbus & Randolph", "public_transport": "platform", "railway": null, "operator": "Chicago Transit Authority", "highway": "bus_stop", "train": null, "shelter": "no", "local_ref": "8613", "bench": "no", "bus": null, "network": "CTA", "old_name": null }, "geometry": { "type": "Point", "coordinates": [ -87.620823, 41.8847508 ] } },
{ "type": "Feature", "properties": { "osm_id": 5867916903, "name": "Columbus & Randolph", "public_transport": "stop_position", "railway": null, "operator": "Chicago Transit Authority", "highway": null, "train": null, "shelter": null, "local_ref": "8613", "bench": null, "bus": "yes", "network": "CTA", "old_name": null }, "geometry": { "type": "Point", "coordinates": [ -87.6207504, 41.8847514 ] } },
{ "type": "Feature", "properties": { "osm_id": 5844798441, "name": "Columbus & Randolph", "public_transport": "stop_position", "railway": null, "operator": "Chicago Transit Authority", "highway": null, "train": null, "shelter": null, "local_ref": "2530", "bench": null, "bus": "yes", "network": "CTA", "old_name": null }, "geometry": { "type": "Point", "coordinates": [ -87.6205426, 41.8848793 ] } },
{ "type": "Feature", "properties": { "osm_id": 5033698154, "name": "Columbus & Randolph", "public_transport": "platform", "railway": null, "operator": "Chicago Transit Authority", "highway": "bus_stop", "train": null, "shelter": "no", "local_ref": "2530", "bench": "no", "bus": null, "network": "CTA", "old_name": null }, "geometry": { "type": "Point", "coordinates": [ -87.6204896, 41.8848796 ] } },
{ "type": "Feature", "properties": { "osm_id": 5033698155, "name": "Randolph & Field EB", "public_transport": null, "railway": null, "operator": "Chicago Transit Authority", "highway": "bus_stop", "train": null, "shelter": "no", "local_ref": "17436", "bench": "no", "bus": null, "network": null, "old_name": null }, "geometry": { "type": "Point", "coordinates": [ -87.6177281, 41.8843188 ] } },
{ "type": "Feature", "properties": { "osm_id": 5033698157, "name": "Randolph & Field WB", "public_transport": null, "railway": null, "operator": "Chicago Transit Authority", "highway": "bus_stop", "train": null, "shelter": "yes", "local_ref": "6357", "bench": "yes", "bus": null, "network": null, "old_name": null }, "geometry": { "type": "Point", "coordinates": [ -87.6170773, 41.8846409 ] } },
{ "type": "Feature", "properties": { "osm_id": 2427387020, "name": "Millennium Station, Track 2", "public_transport": "stop_position", "railway": null, "operator": null, "highway": null, "train": "yes", "shelter": null, "local_ref": null, "bench": null, "bus": null, "network": null, "old_name": null }, "geometry": { "type": "Point", "coordinates": [ -87.6236365, 41.8864336 ] } },
{ "type": "Feature", "properties": { "osm_id": 2427387021, "name": "Millennium Station, Track 4", "public_transport": "stop_position", "railway": null, "operator": null, "highway": null, "train": "yes", "shelter": null, "local_ref": null, "bench": null, "bus": null, "network": null, "old_name": null }, "geometry": { "type": "Point", "coordinates": [ -87.6234174, 41.8864316 ] } },
{ "type": "Feature", "properties": { "osm_id": 4338048793, "name": "Harbor & Randolph", "public_transport": null, "railway": null, "operator": "Chicago Transit Authority", "highway": "bus_stop", "train": null, "shelter": "no", "local_ref": "15416", "bench": "no", "bus": null, "network": null, "old_name": null }, "geometry": { "type": "Point", "coordinates": [ -87.6156859, 41.8848265 ] } },
{ "type": "Feature", "properties": { "osm_id": 4338048792, "name": "Harbor Point", "public_transport": null, "railway": null, "operator": "Chicago Transit Authority", "highway": "bus_stop", "train": null, "shelter": "yes", "local_ref": "6355", "bench": "no", "bus": null, "network": null, "old_name": null }, "geometry": { "type": "Point", "coordinates": [ -87.61513, 41.8850286 ] } }
]
}
