{
"type": "FeatureCollection",
"name": "stations",
"crs": { "type": "name", "properties": { "name": "urn:ogc:def:crs:OGC:1.3:CRS84" } },
"features": [
{ "type": "Feature", "properties": { "osm_id": 1399788323, "operator": "MBTA", "ref": "76", "highway": "bus_stop", "name": "Massachusetts Ave @ Memorial Dr", "public_transport": "stop_position", "railway": null, "bus": "yes", "network": "MBTA", "description": null, "subway": null, "url": null, "wheelchair": null, "line": null, "massgis:geom_id": null }, "geometry": { "type": "Point", "coordinates": [ -71.0928569, 42.357563 ] } },
{ "type": "Feature", "properties": { "osm_id": 1399788325, "operator": "MBTA", "ref": "96", "highway": "bus_stop", "name": "Massachusetts Ave @ Memorial Dr", "public_transport": "stop_position", "railway": null, "bus": "yes", "network": "MBTA", "description": null, "subway": null, "url": null, "wheelchair": null, "line": null, "massgis:geom_id": null }, "geometry": { "type": "Point", "coordinates": [ -71.0927349, 42.357613 ] } },
{ "type": "Feature", "properties": { "osm_id": 1305540019, "operator": "MBTA", "ref": "75", "highway": "bus_stop", "name": "84 Massachusetts Ave", "public_transport": "stop_position", "railway": null, "bus": "yes", "network": "MBTA", "description": null, "subway": null, "url": null, "wheelchair": null, "line": null, "massgis:geom_id": null }, "geometry": { "type": "Point", "coordinates": [ -71.0935821, 42.3588058 ] } },
{ "type": "Feature", "properties": { "osm_id": 1399811978, "operator": "MBTA", "ref": "97", "highway": "bus_stop", "name": "77 Massachusetts Ave", "public_transport": "stop_position", "railway": null, "bus": "yes", "network": "MBTA", "description": "1 - Harvard Square via Mass Ave, CT1 - Central Square, M2- Harvard Square stop", "subway": null, "url": null, "wheelchair": null, "line": null, "massgis:geom_id": null }, "geometry": { "type": "Point", "coordinates": [ -71.0935439, 42.359184 ] } },
{ "type": "Feature", "properties": { "osm_id": 5325254493, "operator": "Massachusetts Bay Transportation Authority", "ref": null, "highway": null, "name": "Kendall\/MIT", "public_transport": "stop_position", "railway": "stop", "bus": null, "network": null, "description": null, "subway": "yes", "url": null, "wheelchair": null, "line": null, "massgis:geom_id": null }, "geometry": { "type": "Point", "coordinates": [ -71.0863914, 42.3624667 ] } },
{ "type": "Feature", "properties": { "osm_id": 365399632, "operator": "Massachusetts Bay Transportation Authority", "ref": null, "highway": null, "name": null, "public_transport": null, "railway": "subway_entrance", "bus": null, "network": null, "description": "Inbound only", "subway": null, "url": null, "wheelchair": null, "line": null, "massgis:geom_id": null }, "geometry": { "type": "Point", "coordinates": [ -71.0862338, 42.362253 ] } },
{ "type": "Feature", "properties": { "osm_id": 31419650, "operator": "Massachusetts Bay Transportation Authority", "ref": null, "highway": null, "name": null, "public_transport": null, "railway": "subway_entrance", "bus": null, "network": null, "description": "Outbound only", "subway": null, "url": "http:\/\/www.mbta.com\/schedules_and_maps\/subway\/lines\/stations\/?stopId=12412", "wheelchair": null, "line": null, "massgis:geom_id": null }, "geometry": { "type": "Point", "coordinates": [ -71.0861276, 42.3627265 ] } },
{ "type": "Feature", "properties": { "osm_id": 3477804484, "operator": "Massachusetts Bay Transportation Authority", "ref": null, "highway": null, "name": "Kendall\/MIT", "public_transport": "stop_position", "railway": "stop", "bus": null, "network": null, "description": null, "subway": "yes", "url": null, "wheelchair": null, "line": null, "massgis:geom_id": null }, "geometry": { "type": "Point", "coordinates": [ -71.0852385, 42.3623421 ] } },
{ "type": "Feature", "properties": { "osm_id": 1678319172, "operator": "Massachusetts Bay Transportation Authority", "ref": null, "highway": null, "name": null, "public_transport": null, "railway": "subway_entrance", "bus": null, "network": null, "description": null, "subway": null, "url": null, "wheelchair": null, "line": null, "massgis:geom_id": null }, "geometry": { "type": "Point", "coordinates": [ -71.084868, 42.3622463 ] } },
{ "type": "Feature", "properties": { "osm_id": 1678319191, "operator": "Massachusetts Bay Transportation Authority", "ref": null, "highway": null, "name": null, "public_transport": null, "railway": "subway_entrance", "bus": null, "network": null, "description": null, "subway": null, "url": null, "wheelchair": null, "line": null, "massgis:geom_id": null }, "geometry": { "type": "Point", "coordinates": [ -71.0848426, 42.3624314 ] } },
{ "type": "Feature", "properties": { "osm_id": 3477807126, "operator": "Massachusetts Bay Transportation Authority", "ref": null, "highway": null, "name": "Harvard", "public_transport": "stop_position", "railway": "stop", "bus": null, "network": null, "description": null, "subway": "yes", "url": "http:\/\/www.mbta.com\/schedules_and_maps\/subway\/lines\/stations\/?stopId=12084", "wheelchair": "yes", "line": "Red", "massgis:geom_id": "6" }, "geometry": { "type": "Point", "coordinates": [ -71.1188521, 42.3741763 ] } },
{ "type": "Feature", "properties": { "osm_id": 69487440, "operator": "Massachusetts Bay Transportation Authority", "ref": null, "highway": null, "name": "Central Square", "public_transport": "stop_position", "railway": null, "bus": null, "network": null, "description": null, "subway": "yes", "url": "http:\/\/www.mbta.com\/schedules_and_maps\/subway\/lines\/stations\/?stopId=10919", "wheelchair": "yes", "line": "Red", "massgis:geom_id": "7" }, "geometry": { "type": "Point", "coordinates": [ -71.1037444, 42.3653952 ] } },
{ "type": "Feature", "properties": { "osm_id": 2862973447, "operator": "Massachusetts Bay Transportation Authority", "ref": null, "highway": null, "name": "Central Square", "public_transport": "stop_position", "railway": null, "bus": null, "network": null, "description": null, "subway": "yes", "url": "http:\/\/www.mbta.com\/schedules_and_maps\/subway\/lines\/stations\/?stopId=10919", "wheelchair": "yes", "line": "Red", "massgis:geom_id": "7" }, "geometry": { "type": "Point", "coordinates": [ -71.1037041, 42.3654238 ] } },
{ "type": "Feature", "properties": { "osm_id": 3468611609, "operator": "Massachusetts Bay Transportation Authority", "ref": null, "highway": null, "name": "Harvard", "public_transport": "stop_position", "railway": "stop", "bus": null, "network": null, "description": null, "subway": "yes", "url": "http:\/\/www.mbta.com\/schedules_and_maps\/subway\/lines\/stations\/?stopId=12084", "wheelchair": "yes", "line": "Red", "massgis:geom_id": "6" }, "geometry": { "type": "Point", "coordinates": [ -71.1187814, 42.3748807 ] } }
]
}
